{
  "nannies": [
	{"name":"JAYET Isabelle", "lat": "45.4509368", "lng": "5.2903138", "walking": "00:00", "driving": "00:00"},
	{"name":"GUILLET Valérie", "lat": "45.4515542", "lng": "5.2903827", "walking": "00:00", "driving": "00:00"},
	{"name":"JOLLY Béatrice", "lat": "45.4524794", "lng": "5.2906519", "walking": "00:01", "driving": "00:00"},
	{"name":"MESGUICH Emmanuelle", "lat": "45.4540691", "lng": "5.2907207", "walking": "00:04", "driving": "00:00"},

	{"name":"BOVEDA Sandrine", "lat": "45.4496018", "lng": "5.291774", "walking": "00:05", "driving": "00:01"},
	{"name":"SPICHER Laëtitia", "lat": "45.4496020", "lng": "5.291774", "walking": "00:05", "driving": "00:01"},

	{"name":"MOREL Julia", "lat": "45.4537279", "lng": "5.2928197", "walking": "00:06", "driving": "00:01"},
	{"name":"MARTIN Jacqueline", "lat": "45.4537255", "lng": "5.2919096", "walking": "00:06", "driving": "00:01"},
	{"name":"GONTARD MOULIN Sandrine", "lat": "45.4579508", "lng": "5.2892993", "walking": "00:09", "driving": "00:01"},

	{"name":"BASTO DE CAMPOS Louisa", "lat": "45.4442831", "lng": "5.2928957", "walking": "00:10", "driving": "00:01"},
	{"name":"CERDAN Hélène", "lat": "45.4442831", "lng": "5.2928957", "walking": "00:10", "driving": "00:01"},

	{"name":"CHAMBARD Emilie", "lat": "45.459152", "lng": "5.2895399", "walking": "00:13", "driving": "00:01"},
	{"name":"NICOLIER Patricia", "lat": "45.4590715", "lng": "5.2929034", "walking": "00:13", "driving": "00:02"},
	{"name":"BOURGEOIS Stéphanie", "lat": "45.460606", "lng": "5.2906118", "walking": "00:16", "driving": "00:02"},
	{"name":"BEYLIE Véronique", "lat": "45.444102", "lng": "5.2999018", "walking": "00:19", "driving": "00:02"},
	{"name":"JULLIEN Christèle", "lat": "45.4473695", "lng": "5.3041268", "walking": "00:21", "driving": "00:04"},
	{"name":"SOUILLET DESERT Christine", "lat": "45.436148", "lng": "5.3019502", "walking": "00:24", "driving": "00:02"},
	{"name":"VERDET Sylviane", "lat": "45.440955", "lng": "5.3127016", "walking": "00:34", "driving": "00:04"},
	{"name":"FANTON Nataly", "lat": "45.4769819", "lng": "5.2845757", "walking": "00:41", "driving": "00:05"}
  ]
}